City_ID,City,Lat,Lng,Max Temp,Humidity,Cloudiness,Wind Speed,Country,Date
0,margaret river,-33.95,115.0667,18.44,58,24,5.75,AU,1731292843
1,kolonia,50.9333,6.95,10.07,92,100,1.54,DE,1731292844
2,bubaque,11.2833,-15.8333,29.34,59,0,2.09,GW,1731292845
3,hawaiian paradise park,19.5933,-154.9731,25.96,84,75,3.6,US,1731292846
4,qarqaraly,49.4058,75.4742,-1.67,95,100,8.69,KZ,1731292848
5,luderitz,-26.6481,15.1594,13.42,85,0,6.65,NA,1731292849
6,sitka,57.0531,-135.33,8.94,57,40,7.72,US,1731292850
7,petropavlovsk-kamchatsky,53.0452,158.6483,-3.67,93,100,4.0,RU,1731292851
8,pakokku,21.3333,95.1,25.6,70,12,2.78,MM,1731292852
9,pritzwalk,53.1494,12.1741,6.77,80,64,1.57,DE,1731292853
10,saipan,15.1355,145.701,32.39,80,20,5.66,MP,1731292854
11,pacific grove,36.6177,-121.9166,14.25,79,0,1.79,US,1731292856
12,itoman,26.1247,127.6694,28.21,83,40,6.17,JP,1731292857
13,adamstown,-25.066,-130.1015,21.77,76,100,3.8,PN,1731292858
14,perugorria,-29.3413,-58.6106,21.7,52,0,4.0,AR,1731292859
15,waitangi,-43.9535,-176.5597,16.01,88,98,3.13,NZ,1731292860
16,launceston,-41.45,147.1667,18.8,45,0,5.66,AU,1731292861
17,olonkinbyen,70.9221,-8.7187,0.95,95,100,8.23,SJ,1731292862
18,crane,31.3974,-102.3501,16.06,22,2,1.45,US,1731292863
19,tiksi,71.6872,128.8694,-18.25,100,93,0.83,RU,1731292865
20,tarawa,1.419,172.984,31.05,66,40,5.66,KI,1731292866
21,albany,42.6001,-73.9662,7.23,76,100,1.93,US,1731292816
22,punta arenas,-53.15,-70.9167,6.06,65,20,3.09,CL,1731292868
23,klyuchi,52.2667,79.1667,0.17,98,100,6.58,RU,1731292869
24,oamaru,-45.0784,170.9801,11.17,63,27,8.93,NZ,1731292870
25,ust-nera,64.5667,143.2,-22.55,97,96,1.29,RU,1731292872
26,blackmans bay,-43.0167,147.3167,18.62,54,5,0.89,AU,1731292873
27,santa cruz,-17.8,-63.1667,26.7,78,4,2.06,BO,1731292707
28,geraldton,-28.7667,114.6,24.23,50,0,5.66,AU,1731292876
29,natal,-5.795,-35.2094,26.12,73,40,2.57,BR,1731292578
30,marsabit,2.3284,37.9899,18.5,81,90,5.86,KE,1731292879
31,lebu,-37.6167,-73.65,10.54,89,7,2.16,CL,1731292880
32,dahlonega,34.5326,-83.9849,14.53,96,100,1.2,US,1731292881
33,newman,37.3138,-121.0208,13.92,64,2,2.09,US,1731292724
34,sao felix do xingu,-6.6447,-51.995,24.88,70,100,1.44,BR,1731292883
35,vorgashor,67.5833,63.95,-15.5,99,90,2.84,RU,1731292884
36,wailua homesteads,22.0669,-159.378,25.44,84,100,6.17,US,1731292885
37,kapenguria,1.2511,35.0895,13.34,77,45,1.86,KE,1731292887
38,pangai,-19.8,-174.35,25.06,78,75,9.77,TO,1731292888
39,st. john's,47.5649,-52.7093,2.76,77,75,9.77,CA,1731292889
40,alice springs,-23.7,133.8833,25.75,57,81,3.09,AU,1731292890
41,ilulissat,69.2167,-51.1,-6.99,73,38,0.0,GL,1731292891
42,bethel,41.3712,-73.414,12.23,76,100,1.54,US,1731292892
43,campbellton,48.0075,-66.6727,1.25,79,100,1.69,CA,1731292893
44,yellowknife,62.456,-114.3525,-12.71,85,75,2.06,CA,1731292894
45,kodiak,57.79,-152.4072,3.73,81,75,4.63,US,1731292896
46,kingston,17.997,-76.7936,27.53,83,20,3.09,JM,1731292897
47,grytviken,-54.2811,-36.5092,-1.17,88,100,1.39,GS,1731292898
48,longyearbyen,78.2186,15.6401,-1.09,93,75,1.54,SJ,1731292899
49,port mathurin,-19.6833,63.4167,24.09,78,75,9.67,MU,1731292900
50,port-aux-francais,-49.35,70.2167,4.93,86,95,9.48,TF,1731292901
51,fale old settlement,-9.3852,-171.2468,28.18,75,15,4.94,TK,1731292903
52,alesund,62.4723,6.1549,7.08,76,75,3.6,NO,1731292904
53,colares,38.7992,-9.4469,17.96,82,30,7.22,PT,1731292905
54,kununurra,-15.7667,128.7333,36.99,44,20,2.57,AU,1731292727
55,college,64.8569,-147.8028,-17.01,81,20,2.06,US,1731292908
56,jamestown,42.097,-79.2353,13.34,96,100,5.66,US,1731292834
57,bikenibeu village,1.3673,173.1241,30.98,66,40,5.66,KI,1731292911
58,isafjordur,66.0755,-23.124,3.12,80,71,12.09,IS,1731292912
59,edinburgh of the seven seas,-37.0676,-12.3116,15.93,88,90,15.38,SH,1731292913
60,talnakh,69.4865,88.3972,-24.36,88,49,0.78,RU,1731292914
61,tanguieta,10.6212,1.2665,22.4,35,12,2.51,BJ,1731292915
62,flying fish cove,-10.4217,105.6791,27.82,83,100,5.14,CX,1731292919
63,belo sur tsiribihina,-19.7,44.55,23.83,81,6,1.1,MG,1731292921
64,nemuro,43.3236,145.575,10.23,77,100,9.1,JP,1731292922
65,beloyarskiy,63.7119,66.6722,-12.21,83,98,5.69,RU,1731292923
66,haiku-pauwela,20.9219,-156.3051,25.28,71,8,12.07,US,1731292925
67,rodna,47.4167,24.8167,2.29,76,11,1.93,RO,1731292926
68,suvorov,54.1223,36.4966,-0.77,94,15,1.45,RU,1731292927
69,iqaluit,63.7506,-68.5145,-4.15,68,100,3.6,CA,1731292928
70,cabo san lucas,22.8909,-109.9124,24.31,71,0,4.63,MX,1731292866
71,visby,57.6409,18.296,6.01,93,100,3.09,SE,1731292930
72,igarka,67.4667,86.5833,-14.55,91,99,4.22,RU,1731292933
73,mlangali,-9.7833,34.5167,14.85,88,11,2.5,TZ,1731292934
74,shar'ya,58.3686,45.5144,0.13,79,100,2.86,RU,1731292935
75,vila franca do campo,37.7167,-25.4333,20.23,99,79,5.42,PT,1731292936
76,slaton,33.4373,-101.6435,12.82,54,24,1.95,US,1731292937
77,nokia,61.4667,23.5,1.99,94,100,2.24,FI,1731292939
78,vorkuta,67.5,64.0,-15.77,99,89,2.75,RU,1731292940
79,cooper's town,26.8667,-77.5167,24.99,87,92,9.23,BS,1731292941
80,kirensk,57.7853,108.1119,-7.92,84,72,1.68,RU,1731292942
81,llallagua,-18.4167,-66.6333,10.59,49,6,0.6,BO,1731292943
82,sisimiut,66.9395,-53.6735,-6.45,79,100,3.92,GL,1731292944
83,puerto natales,-51.7236,-72.4875,4.47,94,92,2.59,CL,1731292946
84,gwanda,-20.9333,29.0,22.16,69,100,2.24,ZW,1731292947
85,remire-montjoly,4.9167,-52.2667,25.02,100,75,1.03,GF,1731292949
86,yeppoon,-23.1333,150.7333,26.44,66,94,5.26,AU,1731292950
87,mount gambier,-37.8333,140.7667,20.84,45,89,3.87,AU,1731292951
88,yoro,15.1333,-87.1333,19.97,97,6,1.15,HN,1731292952
89,mudanya,40.3753,28.8822,11.31,83,100,1.85,TR,1731292953
90,tura,25.5198,90.2201,25.3,65,0,0.76,IN,1731292954
91,talara,-4.5772,-81.2719,18.95,86,100,6.44,PE,1731292764
92,murghob,38.1702,73.9667,-6.07,66,59,2.31,TJ,1731292957
93,iskateley,67.6803,53.1512,-10.88,88,32,2.64,RU,1731292958
94,christchurch,-43.5333,172.6333,15.53,53,100,8.23,NZ,1731292846
95,pizarro,4.9533,-77.366,25.24,82,99,3.35,CO,1731292960
96,sanok,49.5557,22.2056,0.61,80,0,0.99,PL,1731292961
97,sabang,5.8933,95.3214,27.53,76,98,2.45,ID,1731292962
98,gloucester point,37.254,-76.4969,18.36,79,100,4.63,US,1731292800
99,vadso,70.0744,29.7487,5.09,87,75,4.63,NO,1731292965
100,nova sintra,14.8667,-24.7167,26.72,71,1,6.18,CV,1731292966
101,betioky,-23.7167,44.3833,23.11,71,33,1.26,MG,1731292967
102,itaituba,-4.2761,-55.9836,30.22,36,100,0.96,BR,1731292968
103,hulan,45.9833,126.6,4.74,24,97,5.94,CN,1731292969
104,duyun,26.2667,107.5167,22.28,49,9,1.45,CN,1731292970
105,proletar,40.167,69.504,5.3,87,40,2.0,TJ,1731292971
106,bejar,40.3864,-5.7634,10.32,97,54,3.76,ES,1731292973
107,taiping,4.85,100.7333,26.56,87,100,0.25,MY,1731292974
108,jwaneng,-24.6004,24.7303,18.76,77,100,3.3,BW,1731292975
109,argo,37.6333,22.7333,10.59,73,66,1.73,GR,1731292976
110,enewetak,11.3474,162.3373,28.06,80,54,8.66,MH,1731292977
111,belabo,4.9333,13.3,19.45,91,43,0.78,CM,1731292978
112,eyl,7.9803,49.8164,25.84,75,32,6.63,SO,1731292979
113,bodaybo,57.8506,114.1933,-10.85,82,100,0.07,RU,1731292981
114,chonchi,-42.6128,-73.8092,5.62,97,19,1.25,CL,1731292723
115,bealanana,-14.55,48.7333,19.91,83,79,1.79,MG,1731292983
116,bilibino,68.0546,166.4372,-22.71,100,98,1.03,RU,1731292984
117,murashi,59.3999,48.9615,-1.73,97,97,1.21,RU,1731292985
118,urangan,-25.3,152.9,24.69,76,98,6.95,AU,1731292986
119,sretensk,52.2453,117.7093,-5.41,91,100,1.11,RU,1731292988
120,vila nova de foz coa,41.0637,-7.2039,13.63,66,81,1.87,PT,1731292989
121,bredasdorp,-34.5322,20.0403,13.6,88,43,1.83,ZA,1731292990
122,ixmiquilpan,20.4833,-99.2333,16.7,89,8,2.43,MX,1731292991
123,selfoss,63.9331,-20.9971,3.91,80,100,4.92,IS,1731292992
124,zabaykal'sk,49.6333,117.3167,-1.52,55,26,5.03,RU,1731292706
125,mammoth lakes,37.6485,-118.9721,1.4,30,0,2.06,US,1731292994
126,khandyga,62.6667,135.6,-16.66,91,100,0.3,RU,1731292996
127,sinabang,2.4803,96.3801,28.86,74,49,0.82,ID,1731292997
128,hamilton,39.1834,-84.5333,18.01,93,20,3.09,US,1731292888
129,papatowai,-46.5619,169.4708,13.23,47,82,5.83,NZ,1731292999
130,saint-pierre,-21.3393,55.4781,24.82,73,0,1.54,RE,1731293000
131,sao tome,0.3365,6.7273,25.73,83,98,1.91,ST,1731293001
132,maych'ew,12.7875,39.5422,10.87,92,13,1.55,ET,1731293002
133,shangqiu,34.45,115.65,18.37,66,97,1.3,CN,1731293003
134,wynyard,-41.0,145.7167,18.01,52,0,4.56,AU,1731293005
135,nadym,65.5333,72.5167,-12.25,92,100,11.23,RU,1731293006
136,jennings,38.7192,-90.2604,13.94,70,0,4.12,US,1731293007
137,aykhal,66.0,111.5,-14.17,95,100,3.43,RU,1731293008
138,camacupa,-12.0167,17.4833,16.92,96,99,1.74,AO,1731293009
139,amga,60.8953,131.9608,-11.59,92,97,1.67,RU,1731293010
140,skrunda,56.6833,22.0167,2.14,86,100,2.13,LV,1731293011
141,al jaradiyah,16.5795,42.9124,27.86,72,3,1.78,SA,1731293014
142,san julian,21.0167,-102.1667,22.18,32,95,4.13,MX,1731293015
143,malango,-2.9627,119.9001,26.7,73,64,1.3,ID,1731293016
144,lakhdenpokh'ya,61.5198,30.1992,-0.16,76,100,1.83,RU,1731293017
145,bereznik,62.8551,42.7072,0.3,93,100,2.45,RU,1731293018
146,pimentel,-6.8367,-79.9342,18.16,88,0,4.63,PE,1731293019
147,guerrero negro,27.9769,-114.0611,17.54,64,90,4.35,MX,1731293021
148,mahibadhoo,3.7833,72.9667,27.86,75,20,3.32,MV,1731293022
149,hotan,37.0997,79.9269,10.2,37,88,3.13,CN,1731293023
150,guarapuava,-25.3953,-51.4581,15.74,92,9,1.54,BR,1731293024
151,raja,8.4596,25.678,24.94,65,100,1.29,SS,1731293025
152,san luis,-33.295,-66.3356,12.48,79,17,9.0,AR,1731292789
153,nema,57.5067,50.5011,-1.81,95,99,3.46,RU,1731293027
154,greater sudbury,46.49,-80.99,5.03,96,100,2.24,CA,1731292953
155,utrik,11.2278,169.8474,28.53,76,3,8.76,MH,1731293030
156,akureyri,65.6835,-18.0878,6.96,57,75,4.63,IS,1731293031
157,ushuaia,-54.8,-68.3,5.81,75,75,9.26,AR,1731293032
158,namibe,-15.1961,12.1522,20.05,72,67,1.24,AO,1731293033
159,borba,-4.3878,-59.5939,27.07,68,72,1.69,BR,1731293034
160,holyhead,53.3062,-4.6321,9.0,87,100,2.57,GB,1731293036
161,keflavik,64.0049,-22.5624,6.24,87,75,6.17,IS,1731293038
162,ketchikan,55.3422,-131.6461,7.99,81,100,6.69,US,1731293039
163,invercargill,-46.4,168.35,13.9,62,50,5.81,NZ,1731293040
164,santo domingo de la calzada,42.4285,-2.9555,11.39,91,87,1.69,ES,1731293041
165,dunedin,-45.8742,170.5036,13.78,58,34,2.68,NZ,1731293042
166,canon city,38.441,-105.2424,5.21,63,0,0.0,US,1731293043
167,crucecita,-28.95,-58.9833,22.49,50,0,3.36,AR,1731293044
168,colindres,43.3864,-3.4353,15.05,94,88,1.37,ES,1731293046
169,puerto ayora,-0.7393,-90.3518,21.42,87,88,2.24,EC,1731293047
170,cururupu,-1.8283,-44.8683,25.12,84,20,2.0,BR,1731293048
171,yanchep,-31.55,115.6833,21.85,52,0,4.5,AU,1731293049
172,qaqortoq,60.7167,-46.0333,-2.48,77,100,3.15,GL,1731293050
173,pariaman,-0.619,100.12,29.03,65,94,1.68,ID,1731293051
174,yemetsk,63.4721,41.7941,0.89,91,100,2.52,RU,1731293052
175,sidi ifni,29.3797,-10.173,19.21,75,3,1.86,MA,1731292930
176,touros,-5.1989,-35.4608,25.76,67,100,5.19,BR,1731293055
177,pisco,-13.7,-76.2167,19.03,77,0,7.2,PE,1731293056
178,atafu village,-8.5421,-172.5159,27.7,75,9,3.73,TK,1731293057
179,piranhas,-16.4269,-51.8222,24.73,85,100,1.08,BR,1731293058
180,balykshi,47.0667,51.8667,3.0,100,100,1.0,KZ,1731293059
181,udachny,66.4167,112.4,-14.47,94,100,2.04,RU,1731293060
182,weno,7.4515,151.8468,31.97,74,40,3.6,FM,1731293061
183,west island,-12.1568,96.8225,28.99,74,100,7.2,CC,1731293063
184,tupaciguara,-18.5922,-48.705,23.69,69,100,1.89,BR,1731293064
185,san patricio,28.017,-97.5169,24.97,74,0,3.14,US,1731293065
186,chernomorskoye,45.5039,32.6997,8.05,80,100,6.75,UA,1731293066
187,macusani,-14.0833,-70.4333,5.12,82,100,2.76,PE,1731293067
188,arraial do cabo,-22.9661,-42.0278,22.03,69,7,1.7,BR,1731293068
189,broken hill,-31.95,141.4333,20.6,52,100,3.83,AU,1731292980
190,bagudo,11.4033,4.2296,21.11,29,3,2.62,NG,1731293072
191,fort bragg,35.139,-79.006,18.75,87,100,2.06,US,1731293073
192,afaahiti,-17.75,-149.2833,24.49,86,90,7.98,PF,1731293074
193,as sulayyil,20.4607,45.5779,18.87,46,89,2.5,SA,1731293075
194,paracuru,-3.41,-39.0306,25.57,78,92,5.4,BR,1731293076
195,georgetown,5.4112,100.3354,30.96,74,20,1.54,MY,1731293077
196,bamboo flat,11.7,92.7167,29.05,79,40,2.57,IN,1731293079
197,mount pearl,47.5166,-52.7813,2.3,78,75,9.77,CA,1731293080
198,bonthe,7.5264,-12.505,26.09,81,31,0.93,SL,1731293081
199,new norfolk,-42.7826,147.0587,19.28,16,3,1.02,AU,1731293082
200,kavaratti,10.5669,72.642,28.16,71,1,2.96,IN,1731293083
201,pangoa,-12.1167,-73.0,20.82,96,88,1.24,PE,1731293084
202,abong mbang,3.9833,13.1833,19.18,99,94,0.95,CM,1731293085
203,sao vicente,-23.9631,-46.3919,19.99,26,0,1.6,BR,1731292838
204,fort st. john,56.2499,-120.8529,-1.06,74,100,4.63,CA,1731293088
205,stara syniava,49.6032,27.6191,0.86,84,6,1.44,UA,1731293089
206,hithadhoo,-0.6,73.0833,28.26,70,60,5.51,MV,1731293090
207,nantucket,41.2835,-70.0995,14.06,82,100,9.96,US,1731292821
208,blackwell,36.8045,-97.2828,12.01,85,0,0.0,US,1731292862
209,coolum beach,-26.5333,153.1,29.63,84,85,5.9,AU,1731293093
210,susuman,62.7833,148.1667,-26.96,94,99,0.97,RU,1731293094
211,pangody,65.85,74.4859,-13.05,93,100,9.66,RU,1731293096
212,stanley,54.868,-1.6985,6.21,89,78,3.22,GB,1731293097
213,gijang,35.2442,129.2139,15.85,62,0,4.46,KR,1731293098
214,nagqu,31.5,92.0,0.51,34,0,2.06,CN,1731293099
215,drahichyn,52.1874,25.1597,1.15,87,11,2.01,BY,1731293100
216,rantepao,-2.9701,119.8978,26.7,73,64,1.3,ID,1731293101
217,mogadishu,2.0371,45.3438,26.36,82,95,4.26,SO,1731293102
218,brisas de zicatela,15.8369,-97.0419,27.29,83,0,0.0,MX,1731293104
219,chibougamau,49.9168,-74.3659,0.79,100,100,1.54,CA,1731293105
220,richards bay,-28.783,32.0377,19.94,94,100,2.12,ZA,1731293106
221,uturoa,-16.7333,-151.4333,26.81,83,67,6.57,PF,1731293107
222,avarua,-21.2078,-159.775,24.03,73,40,3.09,CK,1731293108
223,narvik,68.4384,17.4272,5.45,92,57,1.77,NO,1731293109
224,posto fiscal rolim de moura,-13.0833,-62.2667,24.56,85,94,1.5,BR,1731293110
225,kone,-21.0595,164.8658,32.1,39,1,3.58,NC,1731293112
226,vilyuchinsk,52.9306,158.4028,-2.85,94,100,2.1,RU,1731293113
227,valparaiso,-33.0393,-71.6273,16.8,51,0,1.54,CL,1731292904
228,coquimbo,-29.9533,-71.3436,14.85,85,0,1.03,CL,1731292858
229,happy valley-goose bay,53.3168,-60.3315,1.17,69,20,3.09,CA,1731293110
230,holualoa,19.6228,-155.9522,24.91,82,20,4.12,US,1731293119
231,ribeira grande,38.5167,-28.7,20.99,87,85,6.71,PT,1731293120
232,champerico,14.3,-91.9167,27.34,77,43,0.51,GT,1731293121
233,villamontes,-21.25,-63.5,23.71,49,0,0.98,BO,1731293122
234,sur,22.5667,59.5289,26.02,50,0,0.77,OM,1731292951
235,port alfred,-33.5906,26.891,14.54,97,100,3.17,ZA,1731293124
236,aasiaat,68.7098,-52.8699,-9.63,99,100,3.86,GL,1731293125
237,macau,22.2006,113.5461,26.51,78,20,4.63,MO,1731293127
238,yilan,24.757,121.753,23.78,90,97,2.93,TW,1731293128
239,alotau,-10.3069,150.4462,29.36,70,100,1.38,PG,1731293129
240,lihue,21.9789,-159.3672,25.77,83,100,6.17,US,1731293130
241,tosontsengel,48.7567,98.2839,-5.45,61,53,1.18,MN,1731293131
242,pasuquin,18.3328,120.6177,27.97,89,100,7.2,PH,1731293132
243,ancud,-41.8697,-73.8203,7.63,78,7,3.16,CL,1731293134
244,berdigestyakh,62.0989,126.6992,-14.58,97,98,1.62,RU,1731293135
245,arno,60.1167,18.6333,5.8,83,100,3.18,SE,1731293136
246,puerto aysen,-45.4,-72.7,6.18,100,100,2.11,CL,1731293137
247,dhidhdhoo,6.8833,73.1,28.13,72,9,4.05,MV,1731293138
248,shipunovo,52.1582,82.2173,0.71,97,100,8.91,RU,1731293139
249,san fernando,15.0286,120.6898,28.85,69,100,5.07,PH,1731293141
250,brady,31.1352,-99.3351,16.25,51,100,4.63,US,1731293142
251,severo-yeniseyskiy,60.3725,93.0408,-6.83,91,100,2.13,RU,1731293143
252,pemangkat,1.1667,108.9667,27.21,81,98,2.0,ID,1731293144
253,morant bay,17.8815,-76.4093,26.05,87,11,2.24,JM,1731293145
254,wongsorejo,-7.9908,114.4009,30.71,62,53,2.55,ID,1731293146
255,papao,-17.75,-149.55,27.82,90,83,8.98,PF,1731293147
256,ghanzi,-21.5667,21.7833,20.44,73,100,3.13,BW,1731293148
257,dickson,36.077,-87.3878,18.31,98,39,0.89,US,1731292972
258,caleta de carquin,-11.0925,-77.6267,18.83,84,85,3.88,PE,1731293151
259,sao francisco do sul,-26.2433,-48.6381,21.95,78,75,1.54,BR,1731293016
260,ivdel',60.6911,60.4206,-9.57,80,3,3.1,RU,1731293153
261,qoryooley,1.7878,44.53,24.83,88,95,2.61,SO,1731293154
262,kijang,35.2442,129.2139,15.85,62,0,4.46,KR,1731293155
263,itapetininga,-23.5917,-48.0531,14.8,93,0,2.75,BR,1731293156
264,naze,28.3667,129.4833,25.51,82,33,3.09,JP,1731293157
265,thompson,55.7435,-97.8558,-5.91,100,20,1.54,CA,1731292936
266,hengchun,22.0042,120.7439,27.33,75,17,10.41,TW,1731293160
267,shubarshi,48.5872,57.1869,1.42,83,100,4.44,KZ,1731293161
268,maridi,4.9158,29.4742,18.83,96,98,1.97,SS,1731293162
269,ishigaki,24.3448,124.1572,27.07,78,75,6.17,JP,1731293163
270,kuyeda,56.4311,55.5886,-4.31,93,62,4.84,RU,1731293164
271,hauterive,46.0901,3.4459,7.43,98,36,1.93,FR,1731293165
272,idri,27.5,13.2667,16.85,39,100,2.52,LY,1731293167
273,gargalianoi,37.0667,21.6333,13.34,73,59,3.21,GR,1731293168
274,dryden,49.7833,-92.7503,7.16,100,100,6.17,CA,1731293169
275,lompoc,34.6391,-120.4579,13.29,88,0,3.13,US,1731293170
276,al qusayr,34.5091,36.5798,12.89,92,11,0.68,SY,1731293171
277,tayshet,55.9342,98.0044,1.43,59,100,5.14,RU,1731293172
278,camargo,27.6667,-105.1667,18.25,25,0,1.62,MX,1731293173
279,yuzhno-kurilsk,44.0306,145.8556,9.26,69,68,9.72,RU,1731293176
280,saquarema,-22.92,-42.5103,20.08,77,15,1.22,BR,1731293177
281,lata,40.1629,-8.3327,11.91,97,78,1.82,PT,1731293178
282,trinidad,-14.8333,-64.9,26.07,78,37,2.01,BO,1731293137
283,coruripe,-10.1256,-36.1756,24.7,84,47,7.42,BR,1731293180
284,tamanrasset,22.785,5.5228,10.95,40,0,1.54,DZ,1731293181
285,boli,45.7667,130.5167,4.74,23,17,1.33,CN,1731293182
286,salalah,17.0151,54.0924,22.05,46,0,3.09,OM,1731293184
287,lamu,-2.2717,40.902,25.88,87,93,3.15,KE,1731293185
288,constantia,44.1833,28.65,4.38,74,99,8.86,RO,1731293186
289,victorica,-36.2151,-65.4359,12.06,64,0,3.57,AR,1731293187
290,nuku'alofa,-21.1333,-175.2,25.19,88,75,7.2,TO,1731293188
291,katsuura,35.1333,140.3,18.43,89,100,6.49,JP,1731293189
292,yarmouth,41.7057,-70.2286,14.03,81,100,8.23,US,1731292756
293,al jawf,29.5,38.75,16.73,65,0,3.68,SA,1731293192
294,sirjan,29.452,55.6814,12.63,36,100,0.46,IR,1731293193
295,fonte boa,-2.4959,-66.2662,23.88,96,59,1.36,BR,1731293194
296,mil'kovo,55.6078,37.7956,1.86,57,50,2.06,RU,1731293195
297,kirakira,-10.4544,161.9205,28.15,78,100,3.81,SB,1731293196
298,benjamin aceval,-24.9667,-57.5667,25.11,45,0,1.96,PY,1731293197
299,paita,-5.0892,-81.1144,18.3,86,96,5.15,PE,1731293198
300,okhotsk,59.3833,143.3,-9.44,66,100,9.1,RU,1731293200
301,gallup,35.5281,-108.7426,3.91,20,0,1.54,US,1731293201
302,tazovsky,67.4667,78.7,-15.71,93,100,7.44,RU,1731293202
303,vikhorevka,56.1201,101.1636,-3.8,74,100,2.86,RU,1731293203
304,carthage,36.8611,10.3316,14.74,94,40,1.03,TN,1731293205
305,howard springs,-12.497,131.047,33.82,64,56,2.43,AU,1731293207
306,howrah,22.5892,88.3103,25.0,83,40,2.57,IN,1731293208
307,yaren,-0.5472,166.916,28.26,69,0,5.48,NR,1731293209
308,choyr,46.3611,108.3611,1.01,41,17,4.57,MN,1731293210
309,pocatello,42.8713,-112.4455,10.26,44,0,6.26,US,1731293016
310,egilsstadir,65.2653,-14.3948,5.95,65,40,6.17,IS,1731293212
311,hadibu,12.65,54.0333,25.66,81,12,4.23,YE,1731293213
312,san jose de feliciano,-30.3845,-58.7517,21.54,51,0,4.36,AR,1731293215
313,inverell,-29.7833,151.1167,27.87,54,89,4.47,AU,1731293216
314,cherdakly,54.3594,48.845,-2.03,100,0,1.0,RU,1731293217
315,stephenville,32.2207,-98.2023,16.07,59,0,2.06,US,1731293219
316,es castell,39.8795,4.2854,17.38,77,40,8.75,ES,1731293220
317,sorong,-0.8833,131.25,28.16,75,27,1.58,ID,1731293222
318,lodja,-3.4833,23.4333,18.68,98,97,0.58,CD,1731293223
319,shingu,33.7333,135.9833,22.33,67,69,1.98,JP,1731293224
320,auki,-8.7676,160.7034,27.86,82,100,1.23,SB,1731293225
321,kisesa,-3.0833,34.15,19.45,70,84,2.72,TZ,1731293226
322,muhammadabad,25.6333,83.75,26.41,45,0,1.14,IN,1731293227
323,shuangjiang,26.1547,109.7138,22.28,42,0,1.77,CN,1731293229
324,kandiari,26.9156,68.5216,27.63,47,0,1.02,PK,1731293230
325,mahina,-17.5065,-149.489,27.87,78,100,4.12,PF,1731293231
326,kangaba,11.9333,-8.4167,21.7,38,0,1.48,ML,1731293232
327,than,22.5667,71.1833,26.29,38,0,2.24,IN,1731293233
328,cidreira,-30.1811,-50.2056,20.6,80,0,9.87,BR,1731293234
329,santa marta,11.2408,-74.199,26.03,90,75,3.6,CO,1731293113
330,hasaki,35.7333,140.8333,19.25,87,100,6.23,JP,1731293237
331,namtsy,62.7161,129.6658,-15.66,94,98,0.96,RU,1731293239
332,miyako,39.6367,141.9525,18.12,37,0,1.23,JP,1731293240
333,tindouf,27.6711,-8.1474,22.33,23,3,2.98,DZ,1731293241
334,nuuk,64.1835,-51.7216,-2.66,100,100,2.57,GL,1731293242
335,alghero,40.5589,8.3181,17.05,82,0,5.14,IT,1731293243
336,codrington,-38.2667,141.9667,17.42,59,60,6.92,AU,1731293244
337,ponta delgada,37.7333,-25.6667,20.4,88,75,6.17,PT,1731293246
338,verkhnevilyuysk,63.4453,120.3167,-11.38,92,100,2.76,RU,1731293247
339,nsanje,-16.92,35.262,23.73,79,12,1.28,MW,1731293248
340,scottburgh,-30.2867,30.7532,18.93,91,100,3.11,ZA,1731293249
341,gadzhiyevo,69.2551,33.3362,2.45,70,100,7.66,RU,1731293250
342,tual,-5.6667,132.75,28.44,78,61,5.8,ID,1731293251
343,siliana,36.085,9.3708,14.25,81,81,1.61,TN,1731293252
344,nova odesa,47.3078,31.7851,2.27,83,75,3.19,UA,1731293254
345,inebolu,41.9747,33.7608,11.07,73,100,1.81,TR,1731293255
346,ambodifotatra,-16.9833,49.85,25.8,81,9,3.42,MG,1731293256
347,miri,4.4148,114.0089,30.08,74,40,0.0,MY,1731293257
348,lewiston orchards,46.3804,-116.9754,9.93,82,75,3.09,US,1731293258
349,bengkulu,-3.8004,102.2655,29.17,68,73,1.66,ID,1731293116
350,valdez,1.2492,-78.9831,24.51,81,93,4.48,EC,1731293081
351,tralee,52.2704,-9.7026,6.75,93,66,1.68,IE,1731293262
352,iwon-up,40.3231,128.6553,11.17,71,99,2.23,KP,1731293263
353,coxim,-18.5067,-54.76,26.68,65,5,1.68,BR,1731293264
354,suda,59.1525,37.5582,-0.87,90,92,1.8,RU,1731293265
355,nadi,-17.8,177.4167,31.0,58,40,7.2,FJ,1731293266
356,badger,64.8,-147.5333,-17.05,84,0,2.06,US,1731293267
357,ebaye,8.7748,167.7392,31.01,66,0,5.14,MH,1731293268
358,seydisehir,37.4193,31.8453,7.49,66,100,1.4,TR,1731293270
359,chashniki,54.8569,29.1607,5.45,80,100,1.23,BY,1731293271
360,khilok,51.3674,110.4676,-5.39,77,90,1.47,RU,1731293273
361,palikir - national government center,6.9248,158.1611,31.41,70,100,4.12,FM,1731293274
362,rahimah,26.7079,50.0619,25.75,67,10,4.01,SA,1731293275
363,dhuusamarreeb,5.535,46.3861,24.79,71,89,2.26,SO,1731293276
364,ust'-kulom,61.6864,53.6902,-6.72,91,55,3.19,RU,1731293278
365,kirovskiy,45.0917,133.5136,4.37,42,0,2.94,RU,1731293279
366,yeniseysk,58.4497,92.1703,0.56,85,100,5.18,RU,1731293280
367,zhanibek,49.4167,46.85,-0.09,92,6,3.15,KZ,1731293281
368,boyolangu,-8.1181,111.8935,30.47,64,93,3.84,ID,1731293282
369,gadwal,16.2333,77.8,24.98,50,74,2.97,IN,1731293283
370,pendleton,45.6721,-118.7886,10.78,84,100,0.0,US,1731293284
371,san antonio de pale,-1.4014,5.6325,25.83,85,94,4.29,GQ,1731293285
372,mirante do paranapanema,-22.2919,-51.9064,22.88,66,4,2.66,BR,1731293287
373,torbat-e heydariyeh,35.274,59.2195,8.9,55,0,0.59,IR,1731293288
374,wuyang,31.9925,116.2472,21.05,48,0,3.78,CN,1731293289
375,ascension,30.2169,-90.9001,23.38,94,14,2.9,US,1731293290
376,arteche,12.2645,125.4048,30.63,67,51,4.8,PH,1731293292
377,soller,39.7662,2.7152,16.69,83,31,1.34,ES,1731293294
378,bismarck,46.8083,-100.7837,5.91,74,75,8.75,US,1731293071
379,ulaangom,49.9811,92.0667,-2.65,45,67,0.85,MN,1731293248
380,dom pedrito,-30.9828,-54.6731,16.13,82,0,1.8,BR,1731293297
381,laguna,38.421,-121.4238,16.08,54,0,2.57,US,1731293298
382,marsh harbour,26.5412,-77.0636,25.26,86,76,9.7,BS,1731293299
383,sarikei,2.1167,111.5167,30.85,66,90,0.71,MY,1731293300
384,quatre cocos,-20.2078,57.7625,25.61,83,88,4.44,MU,1731293302
385,yelizovo,53.1873,158.3805,-2.92,93,100,4.0,RU,1731293303
386,manicore,-5.8092,-61.3003,24.28,93,96,1.21,BR,1731293304
387,midoun,33.8081,10.9923,17.92,72,30,0.72,TN,1731293305
388,stiens,53.2623,5.7577,9.99,82,75,4.63,NL,1731293307
389,shira,54.4911,89.9531,0.69,58,14,8.41,RU,1731293308
390,whitehorse,60.7161,-135.0538,-1.57,86,75,4.12,CA,1731293115
391,lazaro cardenas,17.9583,-102.2,26.47,83,8,2.31,MX,1731293311
392,pudasjarvi,65.3833,26.9167,-1.24,91,49,1.97,FI,1731293312
393,waraseoni,21.75,80.0333,22.82,59,0,1.97,IN,1731293313
394,taltal,-25.4,-70.4833,17.42,81,25,1.28,CL,1731293288
395,juan griego,11.0817,-63.9655,26.55,87,87,3.32,VE,1731293316
396,debre birhan,9.6833,39.5333,7.51,85,95,1.63,ET,1731293319
397,blagoveshchenka,52.8333,79.8667,0.31,97,100,7.22,RU,1731293320
398,uvalde,29.3669,-99.767,21.89,48,0,0.0,US,1731293321
399,port elizabeth,-33.918,25.5701,15.17,93,20,3.09,ZA,1731293261
400,thanh hoa,19.8,105.7667,26.15,58,94,1.28,VN,1731293122
401,vernon,50.2581,-119.2691,7.74,80,100,0.51,CA,1731293324
402,filadelfia,39.9523,-75.1638,15.03,90,100,5.14,US,1731293073
403,lorengau,-2.0226,147.2712,27.3,83,96,3.75,PG,1731293327
404,antofagasta,-23.65,-70.4,16.6,83,54,2.07,CL,1731293099
405,revda,56.801,59.9303,-6.84,93,100,4.31,RU,1731293329
406,port lincoln,-34.7333,135.8667,18.47,77,85,5.26,AU,1731293330
407,todos santos,23.45,-110.2167,21.91,77,4,2.85,MX,1731293331
408,machico,32.7,-16.7667,20.35,77,20,5.14,PT,1731293332
409,santa cruz del sur,20.7147,-77.9956,25.09,86,4,3.14,CU,1731293333
410,taro,-8.3862,115.28,28.26,66,42,1.06,ID,1731293335
411,poronaysk,49.2167,143.1167,2.56,53,8,8.63,RU,1731293336
412,prince rupert,54.3161,-130.3201,8.05,73,100,11.83,CA,1731293337
413,york,40.1254,-77.0,10.2,90,100,4.54,US,1731293338
414,senanga,-16.1167,23.2667,22.57,74,78,2.38,ZM,1731293339
415,vilyuysk,63.7553,121.6247,-11.01,94,100,2.46,RU,1731293340
416,shahr-e babak,30.1165,55.1186,12.69,44,100,0.76,IR,1731293341
417,alamosa,37.4695,-105.87,-5.01,86,0,2.57,US,1731293343
418,sibundoy,1.2048,-76.9237,13.97,97,100,1.71,CO,1731292900
419,naha,26.2125,127.6811,28.15,78,40,5.66,JP,1731293345
420,kangding,30.0513,101.9603,13.89,53,22,1.41,CN,1731293346
421,onega,63.9061,38.1404,-0.01,92,76,3.24,RU,1731293347
422,pana,39.3889,-89.0801,10.82,87,0,2.87,US,1731293348
423,korla,41.7597,86.1469,8.01,47,1,3.92,CN,1731293349
424,ciudad guayana,8.3533,-62.6528,27.09,72,18,3.39,VE,1731293296
425,jutai,-5.1833,-68.9,24.36,88,100,1.35,BR,1731293352
426,harstad,68.799,16.5293,6.45,90,54,2.9,NO,1731293353
427,atasu,48.6814,71.6433,0.02,98,100,8.09,KZ,1731293354
428,peterborough,52.5736,-0.2478,9.42,87,100,4.63,GB,1731293355
429,puerto armuelles,8.2833,-82.8667,23.94,92,100,1.79,PA,1731293356
430,walvis bay,-22.9575,14.5053,12.49,91,2,0.48,NA,1731293357
431,northview,43.0456,-85.6006,12.1,89,75,8.75,US,1731293359
432,kavieng,-2.5744,150.7967,29.75,69,90,5.5,PG,1731293360
433,waingapu,-9.6567,120.2641,32.29,50,6,6.06,ID,1731293361
434,chinchilla,-26.75,150.6333,32.23,49,92,1.79,AU,1731293362
435,ugoofaaru,5.6667,73.0,28.09,71,16,2.89,MV,1731293363
436,dondo,-19.6094,34.7431,24.73,97,47,1.77,MZ,1731293364
437,maralal,1.0968,36.698,14.54,84,62,2.33,KE,1731293366
438,ta`u,-14.2336,-169.5144,27.08,83,88,6.97,AS,1731293367
439,argostolion,38.1811,20.489,11.53,51,100,5.2,GR,1731293368
440,oposhnya,49.9565,34.6123,5.04,86,100,2.28,UA,1731293369
441,bunia,1.5667,30.25,16.62,98,100,1.71,CD,1731293370
442,radyvyliv,50.1299,25.2558,1.76,79,7,2.69,UA,1731293371
443,huancavelica,-12.7667,-74.9833,4.63,82,100,2.45,PE,1731293372
444,dudinka,69.4058,86.1778,-24.83,97,64,3.77,RU,1731293373
445,fraserburgh,57.6874,-2.0184,8.95,78,16,10.25,GB,1731293375
446,rabigh,22.7986,39.0349,27.54,65,25,3.43,SA,1731293376
447,alofi,-19.0595,-169.9187,24.94,83,100,8.75,NU,1731293377
448,rameswaram,9.2833,79.3,27.4,76,16,8.44,IN,1731293378
449,nosy varika,-20.5833,48.5333,24.35,91,90,3.34,MG,1731293380
450,crescent city,41.756,-124.2018,14.71,85,100,4.12,US,1731293382
451,inari,68.906,27.0288,-2.21,85,98,1.89,FI,1731293383
452,indiana,40.0003,-86.2503,12.59,74,0,2.57,US,1731293384
453,el bauga,18.262,33.9081,24.23,33,100,5.56,SD,1731293385
454,bahir dar,11.5936,37.3908,14.81,85,8,1.87,ET,1731293386
455,sittwe,20.15,92.9,26.93,70,84,1.9,MM,1731293387
456,pandan,14.0453,124.1694,30.07,71,100,5.15,PH,1731293388
457,puerto baquerizo moreno,-0.9,-89.6,20.85,74,100,3.89,EC,1731293228
458,tolanaro,-25.0319,46.9987,24.04,88,0,5.14,MG,1731293391
459,mahavelona,-17.6848,49.5087,24.97,86,49,2.0,MG,1731293392
460,jiuquan,39.7432,98.5174,9.29,36,17,3.67,CN,1731293393
461,nar'yan-mar,67.6713,53.087,-10.5,87,29,2.77,RU,1731293394
462,uglegorsk,49.0833,142.0333,2.16,57,99,9.92,RU,1731293395
463,khanty-mansiysk,61.0042,69.0019,-9.94,79,40,4.0,RU,1731293396
464,lycksele,64.5954,18.6735,0.93,100,100,2.06,SE,1731293397
465,sao joao da barra,-21.6403,-41.0511,21.25,81,45,3.38,BR,1731293399
466,smithers,54.7804,-127.1743,2.18,75,100,4.63,CA,1731293400
467,nacozari de garcia,30.3742,-109.6908,12.05,43,88,1.34,MX,1731293401
468,bar-sur-aube,48.25,4.5833,7.62,98,71,1.73,FR,1731293402
469,qubadli,39.344,46.582,7.31,70,100,0.64,AZ,1731293403
470,tangalle,6.024,80.7911,27.84,77,40,2.39,LK,1731293405
471,carauari,-4.8828,-66.8958,22.6,94,96,0.59,BR,1731293406
472,muroto-misakicho,33.2833,134.15,20.02,72,0,0.7,JP,1731293407
473,mont-dore,-22.2833,166.5833,27.75,57,29,8.18,NC,1731293408
474,albertina,-22.2008,-46.6158,17.48,88,1,2.24,BR,1731293409
475,labrador city,52.9463,-66.9114,-2.05,69,20,5.14,CA,1731293296
476,adh dhibiyah,24.5014,45.9686,18.67,41,21,3.0,SA,1731293412
477,minas de marcona,-15.2119,-75.1103,13.85,86,83,4.62,PE,1731293414
478,hermanus,-34.4187,19.2345,13.22,86,12,4.18,ZA,1731293415
479,praia da vitoria,38.7333,-27.0667,20.14,88,75,7.41,PT,1731293416
480,ciudad de armeria,18.9333,-103.9667,25.11,83,21,0.97,MX,1731293417
481,westport,41.1415,-73.3579,14.89,85,100,5.14,US,1731293185
482,linares,-35.85,-71.6,9.03,72,0,3.61,CL,1731293421
483,juli,-16.2167,-69.45,8.27,70,80,3.2,PE,1731293422
484,kyabe,9.4515,18.9449,24.74,34,94,0.61,TD,1731293423
485,anadyr,64.75,177.4833,-8.72,86,20,1.0,RU,1731293424
486,al wajh,26.2455,36.4525,24.97,41,0,3.09,SA,1731293425
487,franklin,39.9667,-83.0166,17.18,93,75,6.69,US,1731293427
488,kurnool,15.8309,78.0425,25.03,55,15,2.39,IN,1731293428
489,carolina beach,34.0352,-77.8936,21.68,86,100,3.91,US,1731293429
490,nelson bay,-32.7167,152.15,22.27,78,100,3.13,AU,1731293430
491,opuwo,-18.0607,13.84,20.59,33,80,1.16,NA,1731293431
492,mabaruma,8.2,-59.7833,26.1,86,56,1.67,GY,1731293432
493,jiangyou,31.7667,104.7167,16.27,80,100,0.43,CN,1731293433
494,inhambane,-23.865,35.3833,23.9,87,100,3.56,MZ,1731293435
495,rongelap,11.1635,166.8941,28.34,75,2,8.49,MH,1731293436
496,fukuecho,32.6881,128.8419,22.2,68,40,5.14,JP,1731293437
497,ulsteinvik,62.3432,5.8487,10.73,71,100,4.05,NO,1731293438
498,cataguases,-21.3892,-42.6967,18.89,85,83,1.72,BR,1731293439
499,hlybokaye,55.1382,27.6879,2.18,93,100,2.53,BY,1731293440
500,yashkul',46.1711,45.3435,4.0,80,11,2.36,RU,1731293441
501,grand falls-windsor,48.9332,-55.6649,2.36,78,98,5.42,CA,1731293443
502,plouguerneau,48.6,-4.5,7.36,93,85,1.54,FR,1731293444
503,nabire,-3.3667,135.4833,30.72,63,36,2.83,ID,1731293445
504,soddy-daisy,35.2359,-85.1908,16.85,90,93,2.39,US,1731293446
505,rio grande,-32.035,-52.0986,19.3,83,0,6.58,BR,1731293312
506,puerto escondido,15.85,-97.0667,26.31,85,16,1.07,MX,1731293448
507,ouadda,8.0777,22.4007,19.54,89,100,1.21,CF,1731293449
508,kerikeri,-35.2268,173.9474,15.42,98,100,1.59,NZ,1731293452
509,saint-joseph,-21.3667,55.6167,24.21,82,34,3.73,RE,1731293453
510,puerto gaitan,4.3133,-72.0816,23.81,88,100,1.59,CO,1731293454
511,broome,42.2506,-75.833,7.73,93,100,6.17,US,1731293378
512,bure,10.7,37.0667,12.1,87,10,1.98,ET,1731293456
513,tarauaca,-8.1614,-70.7656,24.64,80,35,1.52,BR,1731293457
514,gambiran satu,-8.3939,114.1464,30.72,58,71,2.54,ID,1731293459
515,adrar,20.5022,-10.0711,21.2,16,66,3.23,MR,1731293460
516,fruita,39.1589,-108.729,8.64,62,0,0.0,US,1731293461
517,qashyr,53.0675,76.1036,-4.77,85,100,3.02,KZ,1731293462
518,salym,60.0625,71.4789,-10.23,90,100,5.47,RU,1731293464
519,dayr mawas,27.6418,30.8466,16.34,49,2,2.26,EG,1731293465
520,at taj,24.2049,23.2857,13.91,44,0,3.31,LY,1731293467
521,point fortin,10.1833,-61.6833,27.43,76,100,6.51,TT,1731293384
522,general mosconi,-23.1851,-62.303,28.07,35,0,4.95,AR,1731293469
523,east ballina,-28.8667,153.5833,22.4,91,100,3.12,AU,1731293470
524,colonia,50.9333,6.95,10.07,92,100,1.54,DE,1731293472
525,ban su-ngai pa di,6.0724,101.8717,29.15,73,98,0.5,TH,1731293473
526,ivankiv,50.9386,29.8943,0.46,96,13,1.62,UA,1731293475
527,santa maria del oro,25.9333,-105.3667,15.29,49,0,1.48,MX,1731293476
528,dinar,38.065,30.1656,5.98,83,100,1.4,TR,1731293477
529,akjoujt,19.6969,-14.4164,23.93,15,35,4.86,MR,1731293478
530,mermoz boabab,14.7065,-17.4758,24.88,83,0,3.09,SN,1731293479
531,sokcho,38.2083,128.5911,18.34,63,75,5.14,KR,1731293481
532,afzalgarh,29.4,78.6833,22.22,58,0,1.31,IN,1731293483
533,mana,5.6592,-53.7767,27.26,80,99,5.51,GF,1731293484
534,liwale,-9.7667,37.9333,20.7,94,33,2.1,TZ,1731293485
535,ambon,-3.6954,128.1814,30.08,74,40,2.06,ID,1731293486
536,nouadhibou,20.931,-17.0347,22.99,38,0,5.66,MR,1731293487
537,constitucion,-35.3333,-72.4167,10.48,79,0,3.98,CL,1731293262
538,greymouth,-42.4667,171.2,14.5,63,54,3.31,NZ,1731293260
539,tari,-11.1105,14.3559,18.77,98,100,0.76,AO,1731293491
540,west valley,46.5921,-120.6051,7.75,86,100,0.45,US,1731293492
541,tshabong,-26.05,22.45,19.19,25,15,4.76,BW,1731293493
542,errachidia,31.9275,-4.4285,14.03,58,0,0.0,MA,1731293494
543,erdenet,49.0333,104.0833,-2.27,44,72,3.6,MN,1731293495
544,carnarvon,-24.8667,113.6333,23.99,52,72,9.09,AU,1731293496
545,yei,4.095,30.6779,18.31,99,93,1.67,SS,1731293498
546,karratha,-20.7377,116.8463,34.19,27,6,6.31,AU,1731293499
547,dong ha,16.8163,107.1003,25.39,70,99,2.8,VN,1731293501
548,sangin,32.0728,64.8359,12.57,42,0,1.3,AF,1731293502
549,ritchie,-29.038,24.6028,15.57,67,1,3.61,ZA,1731293503
550,mossel bay,-34.1831,22.146,13.96,81,95,3.68,ZA,1731293504
551,balkashino,52.5167,68.7667,-10.3,97,100,2.36,KZ,1731293506
552,andergrove,-21.0833,149.1833,27.14,63,100,5.26,AU,1731293507
553,punta del este,-34.9667,-54.95,18.26,85,100,3.09,UY,1731293508
554,williams lake,52.1415,-122.1445,7.81,75,100,10.29,CA,1731293509
555,seven pagodas,12.6264,80.1722,27.13,75,81,6.78,IN,1731293510
556,clodomira,-27.5744,-64.1311,29.99,39,32,2.88,AR,1731293511
557,ust-tsilma,65.441,52.1498,-8.13,98,85,1.48,RU,1731293512
558,al 'aziziyah,32.9058,45.0616,20.98,45,44,2.59,IQ,1731293513
559,altai,46.3722,96.2583,-2.61,56,19,5.18,MN,1731293515
560,zambezi,-13.5432,23.1047,17.89,95,12,2.09,ZM,1731293516
561,kasongo,-4.45,26.6667,18.15,99,99,0.35,CD,1731293517
562,kayangel,8.0823,134.7173,28.55,69,100,0.83,PW,1731293518
563,balabac,7.9868,117.0645,30.06,67,92,1.04,PH,1731293519
564,athlone,53.4333,-7.95,6.09,93,95,0.89,IE,1731293520
565,general conesa,-40.1,-64.4333,18.77,23,94,12.59,AR,1731293521
566,abashiri,44.0213,144.2697,10.16,66,40,6.69,JP,1731293523
567,santa isabel,-23.3156,-46.2214,16.61,97,16,0.63,BR,1731293417
568,quellon,-43.1167,-73.6167,5.75,91,10,2.78,CL,1731293525
569,bairnsdale,-37.8333,147.6167,22.81,60,80,2.68,AU,1731293526
570,mildura,-34.2,142.15,23.93,51,99,7.17,AU,1731293527
571,la passe,45.5549,-0.8967,14.63,71,100,3.86,FR,1731293528
572,cill airne,52.05,-9.5167,7.24,92,47,0.76,IE,1731293529
573,tinajo,29.0788,-13.7081,21.49,53,0,6.69,ES,1731293531
574,burang,30.25,81.1667,0.03,47,0,1.83,CN,1731293532
575,arauca,7.0847,-70.7591,24.98,100,20,0.0,CO,1731293533
576,saldanha,-33.0117,17.9442,13.03,84,12,4.48,ZA,1731293534
577,pokhvistnevo,53.6524,52.1274,-2.95,80,5,2.35,RU,1731293535
578,esperantinopolis,-4.8667,-44.7083,26.84,67,70,2.99,BR,1731293536
579,acarau,-2.8856,-40.12,25.45,82,29,7.49,BR,1731293537
580,hibbing,47.4272,-92.9377,7.27,96,100,4.12,US,1731293538
581,zuwarah,32.9312,12.082,19.94,75,9,2.38,LY,1731293540
582,belyy yar,53.6039,91.3903,0.94,75,0,5.0,RU,1731293541
583,nikolayevsk-on-amure,53.1406,140.73,-2.23,80,100,6.51,RU,1731293542
584,siocon,7.7061,122.1353,30.04,70,71,1.7,PH,1731293543
585,kooringal,-35.1428,147.3771,27.31,26,100,1.87,AU,1731293544
586,chul'man,56.8479,124.9104,-13.61,87,96,0.95,RU,1731293545
587,mhamid,29.82,-5.72,20.66,36,95,4.58,MA,1731293546
588,ambikapur,23.1167,83.2,21.96,55,0,1.36,IN,1731293548
589,loei,17.4167,101.5,19.65,58,32,1.32,TH,1731293549
590,sona,45.4388,10.8255,2.51,93,0,1.54,IT,1731293550
591,mumford,5.2618,-0.759,25.69,83,5,2.06,GH,1731293551
592,port isabel,26.0734,-97.2086,25.57,90,20,2.24,US,1731293552
593,malakal,9.5334,31.6605,24.78,70,51,1.43,SS,1731293553
594,thunder bay,48.4001,-89.3168,5.99,100,100,1.03,CA,1731293475
595,tete,-16.1564,33.5867,30.05,48,0,2.57,MZ,1731293556
596,konstantinovka,49.6167,127.9833,-1.49,44,100,1.45,RU,1731293557
597,bako,5.7833,36.5667,17.1,81,45,1.83,ET,1731293558
598,valenca do piaui,-6.4075,-41.7456,26.9,54,98,0.38,BR,1731293559
599,chortoq,41.0666,71.8553,5.97,57,24,1.71,UZ,1731293560
600,shakawe,-18.3667,21.85,21.95,77,97,2.18,BW,1731293561
601,salahonda,2.1019,-78.7217,25.02,79,96,5.18,CO,1731293563
